{
	"html_attributions": ["Listings by \u003ca href=\"http://www.openrice.com/\"\u003eOpenRice\u003c/a\u003e"],
	"results": [{
		"geometry": {
			"location": {
				"lat": 10.331292,
				"lng": 123.902601
			},
			"viewport": {
				"northeast": {
					"lat": 10.3325728802915,
					"lng": 123.9039137802915
				},
				"southwest": {
					"lat": 10.3298749197085,
					"lng": 123.9012158197085
				}
			}
		},
		"icon": "https://maps.gstatic.com/mapfiles/place_api/icons/lodging-71.png",
		"id": "a43037968aeb6277af467e3126e2414c38388f95",
		"name": "Metro Park Hotel - Cebu City",
		"opening_hours": {
			"open_now": true,
			"weekday_text": []
		},
		"photos": [{
			"height": 2988,
			"html_attributions": ["\u003ca href=\"https://maps.google.com/maps/contrib/101774938509687678664/photos\"\u003eDean McBride\u003c/a\u003e"],
			"photo_reference": "CmRaAAAAy9pAWpxrrzb4NQjRFNALxbnIL8Nrjp6u0tLfBE6q20qROdPhXVLM83NX_tKDyrEec0x_yldU7LmvWVi0nfI9U_9k6MAhgmQq6zh3SIP_ZrtYI3hR8u4nnjFdmyi-ebX7EhBCFgdGzLsppw95G4mWHOyBGhSKhfgvlXc7cYckLHXDKA-sRNboSw",
			"width": 5312
		}],
		"place_id": "ChIJ4Vm4siaZqTMRISv16iNQN58",
		"rating": 3.2,
		"reference": "CmRSAAAAwrVnnJVO8u05KPrORJi6Kka_0Iz4LRVDiWoozAbCgOaO7MAwOl__0VUXg6drx0vXL3zcv867XnCnVMBYbH3Aj56sH6dX97xvueeSxWbGIL3MwosQL43ipA1cdgyjWGrhEhB5WJZ0nKWLhGR7HNqFfSCeGhREcXdsf6LKEMcQiBrnATfb2mIVuQ",
		"scope": "GOOGLE",
		"types": ["dentist",
		"lodging",
		"health",
		"restaurant",
		"food",
		"point_of_interest",
		"establishment"],
		"vicinity": "La Guardia, Saint Lawrence Street, Cebu City",
		"specialties": "Bulalo, Crispy Pata",
		"visitors": 1296
	},
	{
		"geometry": {
			"location": {
				"lat": 10.3079,
				"lng": 124.0195
			},
			"viewport": {
				"northeast": {
					"lat": 10.3092489802915,
					"lng": 124.0208489802915
				},
				"southwest": {
					"lat": 10.3065510197085,
					"lng": 124.0181510197085
				}
			}
		},
		"icon": "https://maps.gstatic.com/mapfiles/place_api/icons/lodging-71.png",
		"id": "56e51dc3902224ddf78c0a14475c387906dd670f",
		"name": "Shangri-La's Mactan Resort and Spa, Cebu",
		"opening_hours": {
			"open_now": true,
			"weekday_text": []
		},
		"photos": [{
			"height": 1512,
			"html_attributions": ["\u003ca href=\"https://maps.google.com/maps/contrib/115666921146896059497/photos\"\u003eShangri-La&#39;s Mactan Resort and Spa, Cebu\u003c/a\u003e"],
			"photo_reference": "CmRaAAAAzBfOCE3R-IWDaljfMkVFTsjX4z_oH8SrUcl7vfroGvtQptnFb55CtLd3HNCPmabAqg7BXyXUGV3qyxPX-bTT0cLPCSI-mC2aG5qMdMsGC4P9A6nbifncDCPgvlTmSC6TEhDigjwT5m3PPPTBgBJ7frgGGhT4iReFG8oor3tHZEvJMI-U5xDZIw",
			"width": 1890
		}],
		"place_id": "ChIJK3Gx-OGWqTMROX_qKq-4KGs",
		"rating": 4.6,
		"reference": "CmRRAAAA8UK5Hinrzw6O0__cuIfuqyNBPtBtwq6tLZFKJqs7FGQ1TaLPE0kXY0EcIL8ha2YcWxNYSgYeU_um1mQx4zOFPQOQktuR7jPNbtQFsND1uUnwdzRzJhj4fS_k26mdSrVMEhATxrSE20rqnGO8f8cGmNHAGhTwdRZFrX11L-orFu0D3V0DhrwLLw",
		"scope": "GOOGLE",
		"types": ["spa",
		"lodging",
		"restaurant",
		"food",
		"store",
		"point_of_interest",
		"establishment"],
		"vicinity": "Punta Engaño Road, Lapu-Lapu City, Cebu",
		"specialties": "Bulalo, Crispy Pata",
		"visitors": 2196
	},
	{
		"geometry": {
			"location": {
				"lat": 10.329952,
				"lng": 123.901566
			},
			"viewport": {
				"northeast": {
					"lat": 10.3311111302915,
					"lng": 123.9028139802915
				},
				"southwest": {
					"lat": 10.3284131697085,
					"lng": 123.9001160197085
				}
			}
		},
		"icon": "https://maps.gstatic.com/mapfiles/place_api/icons/lodging-71.png",
		"id": "364cb53ede5695cb634686f844f5a827eb94e6bd",
		"name": "Crowne Garden Hotel",
		"opening_hours": {
			"open_now": true,
			"weekday_text": []
		},
		"photos": [{
			"height": 2112,
			"html_attributions": ["\u003ca href=\"https://maps.google.com/maps/contrib/101044968594735592883/photos\"\u003e조영철\u003c/a\u003e"],
			"photo_reference": "CmRaAAAAet8X8jvgdlyzHaTeZBykIXR3MFxWlgbguD-SKWPKhcASxkmLpKG2h8a2OC1sKwHqk8_0Ej39cgbg4iUzkqYJvhnrd4m-6cQV1mThq9QyrGDX_WyOG8MyIoSGxkBFlzYkEhAn7OeXohLwlYMCG1jGx2NxGhQ2v-D3qcSN2iTvhPfEa0mV_FS8kg",
			"width": 2816
		}],
		"place_id": "ChIJO7I8ESSZqTMRsjABytp4VdE",
		"rating": 3.4,
		"reference": "CmRSAAAAXCUImfrl20-1Lmz63LXryNJEUyxjnxCK-yadao0Kp7D63n45bAJxeYv4G8G87PDjRf_0sZ64I6GHYJdWjHe3ncqeI7DoKP6eR02_FVkI4UNbw8BrSsRKye0ogKyVazNcEhC84OW4Oi-Uxru_bQB1mNc9GhSEyDpibXLPJU4Oy4oe4QHipc7xNA",
		"scope": "GOOGLE",
		"types": ["lodging",
		"restaurant",
		"food",
		"point_of_interest",
		"establishment"],
		"vicinity": "Salinas Drive, Cebu City",
		"specialties": "Bulalo, Crispy Pata",
		"visitors": 1402
	},
	{
		"geometry": {
			"location": {
				"lat": 10.319371,
				"lng": 123.903154
			},
			"viewport": {
				"northeast": {
					"lat": 10.3206935302915,
					"lng": 123.9045601302915
				},
				"southwest": {
					"lat": 10.3179955697085,
					"lng": 123.9018621697085
				}
			}
		},
		"icon": "https://maps.gstatic.com/mapfiles/place_api/icons/lodging-71.png",
		"id": "0214ebf01047c7aae5a859a0c25d702acd3b0ea6",
		"name": "Quest Hotel and Conference Center - Cebu",
		"opening_hours": {
			"open_now": true,
			"weekday_text": []
		},
		"photos": [{
			"height": 1367,
			"html_attributions": ["\u003ca href=\"https://maps.google.com/maps/contrib/106331211067626177543/photos\"\u003eQuest Hotel and Conference Center - Cebu\u003c/a\u003e"],
			"photo_reference": "CmRaAAAAPjZmVJriVkoTSEh9d7VeeDO8_G6ST119PwF0Md-Nzrev3AABnkzWOTRmT2QneMN-p1dNEOO6_OTmXwAQt9WHpoZkfnm9HwvfVJwPcdD-ZvbmJG6PA8NtOAsxrL82OYJ4EhAuQZPRXw7HFq6ueSLLgw0IGhTXuRDO-1SAALUC1DZia9X65kmW9Q",
			"width": 1363
		}],
		"place_id": "ChIJm4OrCxSfqTMRLfBAb696MG8",
		"rating": 4.2,
		"reference": "CmRRAAAA7J1LXI_OIzJMqatUS24nryZ0x-D1FzZLWEpSBtOXcb8fQAYHdJqHj38by9Dmrj5h4rOgHliYK_3nQ_RiFw7x7tjvfutT7fqiSIBEdh2SfLmdF2uSFeRpJk-GN5XDiOCkEhBx2Gk0e7XFP7M-ZM0piNhvGhTmyCS8SCtl5d_wyHBbQIfEGq012g",
		"scope": "GOOGLE",
		"types": ["lodging",
		"restaurant",
		"food",
		"point_of_interest",
		"establishment"],
		"vicinity": "Archbishop Reyes Avenue, Cebu City",
		"specialties": "Bulalo, Crispy Pata",
		"visitors": 2930
	},
	{
		"geometry": {
			"location": {
				"lat": 10.376766,
				"lng": 123.63656
			},
			"viewport": {
				"northeast": {
					"lat": 10.3781149802915,
					"lng": 123.6379089802915
				},
				"southwest": {
					"lat": 10.3754170197085,
					"lng": 123.6352110197085
				}
			}
		},
		"icon": "https://maps.gstatic.com/mapfiles/place_api/icons/bar-71.png",
		"id": "eabec141c847af868d75104eeae466f2295f4148",
		"name": "Maxwin Family KTV Bar",
		"opening_hours": {
			"open_now": true,
			"weekday_text": []
		},
		"photos": [{
			"height": 4000,
			"html_attributions": ["\u003ca href=\"https://maps.google.com/maps/contrib/105437118998993027563/photos\"\u003eMaxwin Family KTV Bar\u003c/a\u003e"],
			"photo_reference": "CmRaAAAAoTxm_XuLkD8YCHbEdIe2stYr64xXJZnnLIvpyxRptv0kkJJkgqGOEYJNSWJaSBhg-jlUtzJJhZTxcauYlDZHZNMUlw7gl6vq0gcYV1EhI6wMkxBxrFcmA4zRrNLXYYW2EhBTxKA2WggV3--ZIxUnu0qOGhR5SSmX_Nn9CWBPEJ3CN_V6zM2ZTg",
			"width": 6000
		}],
		"place_id": "ChIJO3a6co5yqTMRSbZ86Ksgyl8",
		"rating": 4.2,
		"reference": "CmRRAAAAUC7AeLXC8C78nRVQDBHQ8CGh_DcqEhQD02evHd4RSZqbJNdRLes6j_YhjD3dcNHH2n9g6-4b90PLxmal7xTKqFXZl4W6Diw1fvqcLT6LVsWPbV_0_mAyEh4VsYWXdezvEhDOhy7ChO9bEyPKrzsC0jShGhSdHy5JiOMzHM8oNB557SkE6mRbJg",
		"scope": "GOOGLE",
		"types": ["bar",
		"night_club",
		"restaurant",
		"food",
		"point_of_interest",
		"establishment"],
		"vicinity": "Diosdado Macapagal Highway, Toledo City",
		"specialties": "Bulalo, Crispy Pata",
		"visitors": 3057
	},
	{
		"geometry": {
			"location": {
				"lat": 10.335221,
				"lng": 123.942133
			},
			"viewport": {
				"northeast": {
					"lat": 10.3365699802915,
					"lng": 123.9434819802915
				},
				"southwest": {
					"lat": 10.3338720197085,
					"lng": 123.9407840197085
				}
			}
		},
		"icon": "https://maps.gstatic.com/mapfiles/place_api/icons/lodging-71.png",
		"id": "70e6d2ea61f21f5c60dc08819bd22c9914461fb5",
		"name": "Dohera Hotel",
		"opening_hours": {
			"open_now": true,
			"weekday_text": []
		},
		"photos": [{
			"height": 2000,
			"html_attributions": ["\u003ca href=\"https://maps.google.com/maps/contrib/106297188200574320626/photos\"\u003eDohera Hotel\u003c/a\u003e"],
			"photo_reference": "CmRaAAAAO5MCd7GVr3FVbGuCFnpQ_RZjfgPFNQjd01CRWDjC3MG_zIuQOyvpDUZgAfbUpUWy8n1DnrFgQu3tHazZjpP1IypvSBAGnXf25qR_aLmZQWDwaMuj-L-2nNxPicdZTMGtEhBU2md3yGVavhmofh1hRQCIGhR_byZXJBpDatvED9D5B_vCSRrQmw",
			"width": 1334
		}],
		"place_id": "ChIJ907Yyf2YqTMRygxlls5DbUs",
		"rating": 3.8,
		"reference": "CmRRAAAA02GVbTM0Gn7UxL9M698UH2vkdFON4cg3whFy7MdA5UCX2EsL9i59PvzNw6zn8RiQ36g6AM8Tvu8XEN3cg3bhlvvnlAv3cGWc3bA4AQ9mi8N_vh0PWlXT7AjxuDxAx4JrEhCKDHl7UzhQy58GfWXF1-ToGhQ9bWNfYrdXowspmm0gV778wZjjXA",
		"scope": "GOOGLE",
		"types": ["lodging",
		"restaurant",
		"food",
		"point_of_interest",
		"establishment"],
		"vicinity": "A.C Cortes Street, Mandaue City",
		"specialties": "Bulalo, Crispy Pata",
		"visitors": 3675
	},
	{
		"geometry": {
			"location": {
				"lat": 10.3282974,
				"lng": 123.90584
			},
			"viewport": {
				"northeast": {
					"lat": 10.3296463802915,
					"lng": 123.9071889802915
				},
				"southwest": {
					"lat": 10.3269484197085,
					"lng": 123.9044910197085
				}
			}
		},
		"icon": "https://maps.gstatic.com/mapfiles/place_api/icons/restaurant-71.png",
		"id": "c902eb0ba56f5cd604cacde4fcd078814b608ff7",
		"name": "Casa Verde",
		"opening_hours": {
			"open_now": true,
			"weekday_text": []
		},
		"photos": [{
			"height": 2988,
			"html_attributions": ["\u003ca href=\"https://maps.google.com/maps/contrib/101774938509687678664/photos\"\u003eDean McBride\u003c/a\u003e"],
			"photo_reference": "CmRaAAAAoe-YdsA0teMn60RlX1bCuukY9qL2It2QSdBQ88wzwHBoz3fwwyRh4KQoD0AAcnCxvr-0Bp0qTcXj8r6cpEj9AX70UTxhC_VrBE4ohsjvrPmaAfrv90ZcmJAdQteCNlJSEhCe1oHFJN4ELVFOPKCM7XmtGhTa1F5BYlNb__v4eX3SBYfImrbFxA",
			"width": 5312
		}],
		"place_id": "ChIJ9RsmUCKZqTMRNiGpo1XKZvI",
		"rating": 4.1,
		"reference": "CmRSAAAAzji8jIfptlQLyB1GHcWU5rBMLxKr3shOAO1NERN5atfRV-RZhov55eMWUBxTSSArmorD1mKrREvWsaSD_TPH9fTgJwOyDh8iE6m40jsgR19smVSuaBHfJy8rikKwLU3EEhAprzRmDRaGh-E1nxaEpEOWGhTaowBcHck1Ay1MV6JIeKg-NiCtdg",
		"scope": "GOOGLE",
		"types": ["restaurant",
		"food",
		"point_of_interest",
		"establishment"],
		"vicinity": "The Walk, Cebu City",
		"specialties": "Bulalo, Crispy Pata",
		"visitors": 2854
	},
	{
		"geometry": {
			"location": {
				"lat": 10.3287558,
				"lng": 123.9073391
			},
			"viewport": {
				"northeast": {
					"lat": 10.3301432302915,
					"lng": 123.9086193302915
				},
				"southwest": {
					"lat": 10.3274452697085,
					"lng": 123.9059213697085
				}
			}
		},
		"icon": "https://maps.gstatic.com/mapfiles/place_api/icons/restaurant-71.png",
		"id": "09bd0d198a56043723070b905fedc90360177c6d",
		"name": "Chowabungga!",
		"opening_hours": {
			"open_now": true,
			"weekday_text": []
		},
		"photos": [{
			"height": 1184,
			"html_attributions": ["\u003ca href=\"https://maps.google.com/maps/contrib/102333559690853060387/photos\"\u003eJiddu Villarin\u003c/a\u003e"],
			"photo_reference": "CmRaAAAAgcYfYuuXfdmdu8bW2oh0Rz1mwwnqKiIE6b_0kKrLDhXdKVc8UfsOEW81ZE2A0hm6yzaUQB6QmC4WG9ASfcWRtXBSiD4mvHXTGajOneEBnZ5Cs01iRbDCySX4udEkhA5WEhD3oEYc76zyAyvsPsNZ0dmvGhSDkJVl0PQHdo9YM198-dse9PR-Xw",
			"width": 2144
		}],
		"place_id": "ChIJj07GFyKZqTMR9WfmA19Mdxw",
		"rating": 4.6,
		"reference": "CmRRAAAAP1ynbwjZvKq0vHuUm9KULRx4xxmP7e5qQrumGkXOxPKDqsYGePG3baRqHw7L-duiqzcmOVtUpHpkxNPQ1WhLIozVAvRIfl3_hNGycU3GwYZ_ztsXsRMNIOKt6phXvFAwEhBcj0nxo-lPZJz0b8uagTGvGhRP18l8yZ6yomvDA2W0yULQfGSldw",
		"scope": "GOOGLE",
		"types": ["restaurant",
		"food",
		"point_of_interest",
		"establishment"],
		"vicinity": "GF i1 Building, Jose Maria del Mar Street, Cebu City",
		"specialties": "Bulalo, Crispy Pata",
		"visitors": 3861
	},
	{
		"geometry": {
			"location": {
				"lat": 10.2585482,
				"lng": 123.9811635
			},
			"viewport": {
				"northeast": {
					"lat": 10.2598971802915,
					"lng": 123.9825124802915
				},
				"southwest": {
					"lat": 10.2571992197085,
					"lng": 123.9798145197085
				}
			}
		},
		"icon": "https://maps.gstatic.com/mapfiles/place_api/icons/restaurant-71.png",
		"id": "8a8deaeaef71bf59e8de3677da6c1a59a86fd7de",
		"name": "Jakophil Restaurant",
		"photos": [{
			"height": 360,
			"html_attributions": ["\u003ca href=\"https://maps.google.com/maps/contrib/109498212915164536360/photos\"\u003eSaito JIS\u003c/a\u003e"],
			"photo_reference": "CmRaAAAA8IArXTeRD3xMQMDV-N7o_97Ajsim1nkACbvnclG4fUF_r0yjQ0dj2mSYOUGkhlguu4EIjERqpoZdqqQg6tHHoW2bBmFx1-xX_wfXNI5_m3m3HKTnElMzELyldCpCZuouEhCIReojrXec1gJFciumj3jAGhTytqiBSetViZdIV08RDk87w83vDg",
			"width": 640
		}],
		"place_id": "ChIJe-LrUpuQqTMR6i3tceaXyI4",
		"reference": "CmRSAAAA6CRbBWc98fQFNNQ8gP89WuFmQJCgHQgrZq0F7ejeiU8G6tewU2YwgqOO0EjcgPr0GoMC3aZcmrVPu0WK3BmpXDLmWx0HO4qiKxGq8Y87zR58PsGryVLhOw3RIPzac0DwEhB7chQ1mpTqrR5fGgGj1eANGhRi0uj8egNPbfCc9olmPxL64U5C7A",
		"scope": "GOOGLE",
		"types": ["restaurant",
		"food",
		"point_of_interest",
		"establishment"],
		"vicinity": "Marigondon Marigondon Beach Road",
		"specialties": "Bulalo, Crispy Pata",
		"visitors": 3539
	},
	{
		"geometry": {
			"location": {
				"lat": 10.3254482,
				"lng": 123.9769632
			},
			"viewport": {
				"northeast": {
					"lat": 10.3268261302915,
					"lng": 123.9783628802915
				},
				"southwest": {
					"lat": 10.3241281697085,
					"lng": 123.9756649197085
				}
			}
		},
		"icon": "https://maps.gstatic.com/mapfiles/place_api/icons/restaurant-71.png",
		"id": "bd614278907f874757b08076de8c9058b5e6a2a3",
		"name": "Hukad sa Golden Cowrie",
		"opening_hours": {
			"open_now": true,
			"weekday_text": []
		},
		"photos": [{
			"height": 3968,
			"html_attributions": ["\u003ca href=\"https://maps.google.com/maps/contrib/100553349645183020875/photos\"\u003eMyk Gamora\u003c/a\u003e"],
			"photo_reference": "CmRaAAAA8vB8q9d3ndXRt5PbUygFbCoJgzYoNm-bhDrW_vlBdAQKjrlQXCCmWBMWa-h__XZd_S7E9ouGbxFspg6iQv3zm_hgMB0gbx9vEFEva5h6CZJ0BOU_9fKPByH2D-gloL67EhAzyQUCy6G26Rt0XCQwxOqcGhTVzD82Vil8FXpSkUwunewjcYgxEg",
			"width": 2976
		}],
		"place_id": "ChIJS_Gsg3-XqTMRkCXuzxad5rk",
		"rating": 4.1,
		"reference": "CmRSAAAAUQw-L_imTAVSj73WZ5e3ScH43pffX75ILFV6Ng8NoXjrGtiQfdd1qZPr2dD3FPRykvGB2k6LA2T23j129yStV0RO53p73ixsAlRbjd7LJ-bUPbK5W4qeab46yUA0wUOxEhCoAhBllckGSJzyfcyclXAiGhS-5lLFStEITGrV1i2zvpcWYsPOKA",
		"scope": "GOOGLE",
		"types": ["restaurant",
		"food",
		"point_of_interest",
		"establishment"],
		"vicinity": "Mactan Marina Mall, Pusok, M.L. Quezon National Highway, Lapu-Lapu City",
		"specialties": "Bulalo, Crispy Pata",
		"visitors": 2866
	},
	{
		"geometry": {
			"location": {
				"lat": 10.3425713,
				"lng": 123.9188095
			},
			"viewport": {
				"northeast": {
					"lat": 10.3439622302915,
					"lng": 123.9201728802915
				},
				"southwest": {
					"lat": 10.3412642697085,
					"lng": 123.9174749197085
				}
			}
		},
		"icon": "https://maps.gstatic.com/mapfiles/place_api/icons/restaurant-71.png",
		"id": "f3a8bba5ce37962f05bdd4253025165759bf10d4",
		"name": "10 Dove's Street Resto",
		"photos": [{
			"height": 1024,
			"html_attributions": ["\u003ca href=\"https://maps.google.com/maps/contrib/117181693244037157838/photos\"\u003eRhofel Candado\u003c/a\u003e"],
			"photo_reference": "CmRaAAAAu8VnAhEkfhWM2AZrrYZhIBEnyZes9CQjqrMhj4uQ4WL_hRaGp55MN_Yr6Kk1kY9iYjlQC8rHhbgbljnmxJ4_SVQ9X7bITkg3ZIC1GJCrwHIsAo6by47A1yrDqNzsm0E2EhDU5KzvyyiWFFmtWoUhYiKLGhRkYo8sP19ZXc7BQdvmSz6eKv-jlQ",
			"width": 768
		}],
		"place_id": "ChIJDVtYAfKYqTMR_r3HUkk4wCo",
		"rating": 3.7,
		"reference": "CmRRAAAAWaIwCdCordKxnx-7eFRaWMNFG8If0BWscOaMHbX2aDpZar4mZkwXAInH7gDNqtCS0_Yxkr5JILaflknCrDmt-zYlZ6gHo2TZ23oyMdp8gwP_agxSGmAe4aqTeLx9frVWEhCx5CN7K8c5lFJlXSgjVaiJGhSlF2fD14wmGdwuDd8bfFCzkJnXDw",
		"scope": "GOOGLE",
		"types": ["restaurant",
		"food",
		"point_of_interest",
		"establishment"],
		"vicinity": "869 A. S. Fortuna Street, Mandaue City",
		"specialties": "Bulalo, Crispy Pata",
		"visitors": 1598
	},
	{
		"geometry": {
			"location": {
				"lat": 10.3282278,
				"lng": 123.9100796
			},
			"viewport": {
				"northeast": {
					"lat": 10.3295767802915,
					"lng": 123.9114285802915
				},
				"southwest": {
					"lat": 10.3268788197085,
					"lng": 123.9087306197085
				}
			}
		},
		"icon": "https://maps.gstatic.com/mapfiles/place_api/icons/restaurant-71.png",
		"id": "d51e8c6d5e6119d36a85937c67b1e5b06d0e9a5a",
		"name": "Crossroads",
		"opening_hours": {
			"open_now": true,
			"weekday_text": []
		},
		"photos": [{
			"height": 2268,
			"html_attributions": ["\u003ca href=\"https://maps.google.com/maps/contrib/113119187826175890982/photos\"\u003eNathan Miller\u003c/a\u003e"],
			"photo_reference": "CmRaAAAAEI9NJE4hOXnVZNZUwFhtMoRwlvQngntOh9TIlEnsHWz_1rtS16UYU5LpN-N5Htqf8MJ3goHgs5r9cYDwxxVqizuWq4ZD4i-ep6PTzqJhcGGMCvtKlnGLPUSbBTKpooyVEhCJscfHDZJXcSzqu9RjeyQjGhS-cpHkQB1FzUi0NmdNiO8PPPAzPA",
			"width": 4032
		}],
		"place_id": "ChIJXQzu6hiZqTMRFziWazr4-2c",
		"rating": 4.2,
		"reference": "CmRRAAAAGtngxhHDTrl4Ex53au5TTtLESOnua5GO6Eh7Pt3-w5aqufmcrj08YmkNHWh9FBxAlbvB8_rsF4tI-OUGyzEjrxMbp5Jk7CSFA-2GFXk_OuoCwIxFg4bnletjVpURbGJVEhAVsq7Yyi-3kzNz25XhUAb_GhSvgh6E-KLApxlkFvl1MNU_XCCZIw",
		"scope": "GOOGLE",
		"types": ["restaurant",
		"food",
		"point_of_interest",
		"establishment"],
		"vicinity": "Cebu City",
		"specialties": "Bulalo, Crispy Pata",
		"visitors": 3253
	},
	{
		"geometry": {
			"location": {
				"lat": 10.3425558,
				"lng": 123.9163768
			},
			"viewport": {
				"northeast": {
					"lat": 10.3439047802915,
					"lng": 123.9177257802915
				},
				"southwest": {
					"lat": 10.3412068197085,
					"lng": 123.9150278197085
				}
			}
		},
		"icon": "https://maps.gstatic.com/mapfiles/place_api/icons/restaurant-71.png",
		"id": "fb636612481f266ea331610ec0da998648c9f188",
		"name": "Kagura Japanese Restaurant",
		"opening_hours": {
			"open_now": true,
			"weekday_text": []
		},
		"photos": [{
			"height": 2268,
			"html_attributions": ["\u003ca href=\"https://maps.google.com/maps/contrib/107623949254226248350/photos\"\u003eLuis Macasaet\u003c/a\u003e"],
			"photo_reference": "CmRaAAAACsHE5B0sN4z4eua7HYg6EAJ3CaT7d9NaZHDO-O0qeZg4bHe7cVOIxYcZexXMeTYRNfns9PMCYEYMJYnigzaKM7TPe99hnsyIIXy2JzMnjncDDOOW5hhKwJsQ_986X2pnEhDfvL2MSYDas8qWo1oQpIiiGhSjjQOAD8L0pnNIHSgUC1pjmLgtgg",
			"width": 4032
		}],
		"place_id": "ChIJR3Vsl-WYqTMRDbOCHQVPkh4",
		"rating": 4,
		"reference": "CmRRAAAAMJd2wTDNPMbm6JtyTflt1hViqRTU8eS8oeB4jUWWAnwrjSK225zeaqjJUf6ePm7Yhf-WjwUczne5Qchn3fiucBl2Dn4nQcuB20-auTc0BwhZDQhc5nDJNz5RW3MtQrbQEhD-MLQOBM1oz1J5zAOO0kl_GhT7SC9ZT9yQ6Nuop2Og6aSW9Rtjrw",
		"scope": "GOOGLE",
		"types": ["restaurant",
		"food",
		"point_of_interest",
		"establishment"],
		"vicinity": "Mandaue City",
		"specialties": "Ramen, Chicken Teriyaki",
		"visitors": 3448
	},
	{
		"geometry": {
			"location": {
				"lat": 10.3318655,
				"lng": 123.8997544
			},
			"viewport": {
				"northeast": {
					"lat": 10.3331078802915,
					"lng": 123.9012095302915
				},
				"southwest": {
					"lat": 10.3304099197085,
					"lng": 123.8985115697085
				}
			}
		},
		"icon": "https://maps.gstatic.com/mapfiles/place_api/icons/restaurant-71.png",
		"id": "5c919133c9d6348f2eea72a4a90d0fc23a30a3f9",
		"name": "PINO Filipino Cuisine",
		"opening_hours": {
			"open_now": true,
			"weekday_text": []
		},
		"photos": [{
			"height": 4000,
			"html_attributions": ["\u003ca href=\"https://maps.google.com/maps/contrib/115170160582033543010/photos\"\u003eJay Dilan\u003c/a\u003e"],
			"photo_reference": "CmRaAAAAZLFtTwu50iXVURWKreczmIe6SLT2BN_XgcT3EsrpEkegDF3e2ZK6dxqY0jrnDj9YGSYDTgB7noApWy40TkPLxWp8_xAfLlYrLSS-pi3V5J1zGWON_OhMqta-0d6Aent5EhBhx4q6_CFxe5_50VQe1Eg2GhQAHY_bMBvl7LobiEoxqEJyRJc4lQ",
			"width": 6016
		}],
		"place_id": "ChIJV4OWeyaZqTMRCfAicF1Ds5I",
		"rating": 3.9,
		"reference": "CmRSAAAAx6ZBTL5D9vScDCzjlximuZ0x9lnUp7ND9RTwqmCua3VgE8on6-7B6WuNMIvjh6dElxceZ-VV8PnukbRcAsW7lEbApZR0lBtQYCwKH2J87Y8FBm3P2CXXiljMA_LfhqPaEhBXkjIrWI4qhCyJNHpHdN_kGhQBJ6cbEpQ8A9fR1x69QN3_y304_A",
		"scope": "GOOGLE",
		"types": ["restaurant",
		"food",
		"point_of_interest",
		"establishment"],
		"vicinity": "Wilson Street, Cebu City",
		"specialties": "Bulalo, Crispy Pata",
		"visitors": 2229
	},
	{
		"geometry": {
			"location": {
				"lat": 10.4451229,
				"lng": 123.8793054
			},
			"viewport": {
				"northeast": {
					"lat": 10.4464718802915,
					"lng": 123.8806543802915
				},
				"southwest": {
					"lat": 10.4437739197085,
					"lng": 123.8779564197085
				}
			}
		},
		"icon": "https://maps.gstatic.com/mapfiles/place_api/icons/restaurant-71.png",
		"id": "925f7d90c818fd21873a713fa1748b9f269a86ad",
		"name": "Casino Español de Cebu",
		"place_id": "ChIJq6qqqqqmqTMR6dd4C6_qpeg",
		"reference": "CmRSAAAAReCOYpySNiSqPXOnQ_D0uBQ6sdFJv1F_Aob38N6iD7kujibaRsXd4rgsbizmWVQ7J3wFy-iPRwj8oK3E--5p8FErgqCLDQUtrQbbmp6YGXWNc5nrFeVgOZS61bZsel4pEhBIpMC8wQKOfbbK8Zk95d6MGhTA9DB73GBHPMorjOOsWtwBYn__2Q",
		"scope": "GOOGLE",
		"types": ["restaurant",
		"food",
		"point_of_interest",
		"establishment"],
		"vicinity": "Cogon V. Ranudo Street",
		"specialties": "Bulalo, Crispy Pata",
		"visitors": 3746
	},
	{
		"geometry": {
			"location": {
				"lat": 10.3079,
				"lng": 124.0195
			},
			"viewport": {
				"northeast": {
					"lat": 10.3092489802915,
					"lng": 124.0208489802915
				},
				"southwest": {
					"lat": 10.3065510197085,
					"lng": 124.0181510197085
				}
			}
		},
		"icon": "https://maps.gstatic.com/mapfiles/place_api/icons/restaurant-71.png",
		"id": "631cf842ce460e60300837f6599af66d72a9180b",
		"name": "Acqua at Shangri-La's Mactan Resort and Spa - Cebu",
		"photos": [{
			"height": 3024,
			"html_attributions": ["\u003ca href=\"https://maps.google.com/maps/contrib/105647250932972342140/photos\"\u003e다모이다\u003c/a\u003e"],
			"photo_reference": "CmRaAAAAa4zHE5gUcACOsi_1zjsxvMrboHv1OofCyTvZ3JqTTWC2NKOwqhOuElrx_KZEW7fm2iCgqhK9FDcsQhf7M_yeYyOcO-F8BM76Bc1BADbpZ4IqMl4sOF0CNoC45kxgoMYHEhDoiOJEEoIakhu0k4qsXy3DGhR8076oE1iELPOg5zDcTusc2AsrXA",
			"width": 4032
		}],
		"place_id": "ChIJ2aQvC-KWqTMRwQVRVPjDSUQ",
		"rating": 5,
		"reference": "CmRRAAAAd_Dl-492KjfYvwkug_aEh62iiZvgypxmKwE1k__E7F6ga6-gyZTmdhnCvrGEexzRD3G5fBzlgzNns5Ai2DoLaaZZMNMaMxLQuh0BsrNHkNTVhJStTb5h9sAfj6KMa65REhDhSv9WgpEkgXc-8yugMXfgGhRILSH3cS6aQ2AHFbOTV8RbZg7FmA",
		"scope": "GOOGLE",
		"types": ["restaurant",
		"food",
		"point_of_interest",
		"establishment"],
		"vicinity": "Punta Engaño Road, Cebu",
		"specialties": "Bulalo, Crispy Pata",
		"visitors": 2911
	},
	{
		"geometry": {
			"location": {
				"lat": 10.318025,
				"lng": 123.905062
			},
			"viewport": {
				"northeast": {
					"lat": 10.3193739802915,
					"lng": 123.9064109802915
				},
				"southwest": {
					"lat": 10.3166760197085,
					"lng": 123.9037130197085
				}
			}
		},
		"icon": "https://maps.gstatic.com/mapfiles/place_api/icons/restaurant-71.png",
		"id": "703310645e42e66fdb8d9914df1d1fb5eacce275",
		"name": "Orange Brutus",
		"photos": [{
			"height": 2988,
			"html_attributions": ["\u003ca href=\"https://maps.google.com/maps/contrib/109124334817345525302/photos\"\u003eHenry Canizares\u003c/a\u003e"],
			"photo_reference": "CmRaAAAAVRLOnNnM1vcm8n_3_HbMwms7qcAwyu_ceHyAlx34-Tmtidcbkn9iP_wnqyAbKAxHuRVjWk1EnszzW35g8aG1dWaRTqa5ebvG65L9EXm5eITzCLS3BQTWROQU1rM6kzXPEhBiq3IFJ5K8c9cgnjB0Q8MBGhTZTHE9xadxoDERRdS0x0PyDVydHA",
			"width": 5312
		}],
		"place_id": "ChIJR6nEAT-ZqTMRD4DyxsqHXCk",
		"rating": 4,
		"reference": "CmRRAAAA3K62PZRjTHbk-rSuDZYMrMWO1jY-3_Y_yfaYstgcaAn22t_5-H2IXbcqiE5kuVUWEvLN3iTlwN2f7tr15mJvo3dw2VeARF-N1N4ZFWLesn23WM350OrZjV5I7HES7xE4EhAg27JU-UywiAG3N0xYv66ZGhSMNV52MB0ZbwdIDaCeKo4Xcs39rA",
		"scope": "GOOGLE",
		"types": ["restaurant",
		"food",
		"point_of_interest",
		"establishment"],
		"vicinity": "Ayala, Cebu City",
		"specialties": "Lumpia Shanghai",
		"visitors": 1421
	},
	{
		"geometry": {
			"location": {
				"lat": 10.3182239,
				"lng": 123.905147
			},
			"viewport": {
				"northeast": {
					"lat": 10.3199745302915,
					"lng": 123.9069863302915
				},
				"southwest": {
					"lat": 10.3172765697085,
					"lng": 123.9042883697085
				}
			}
		},
		"icon": "https://maps.gstatic.com/mapfiles/place_api/icons/restaurant-71.png",
		"id": "2f7ffe4afc977de275e3e59ba92bff6a83d45302",
		"name": "Laguna Garden Cafe",
		"opening_hours": {
			"open_now": true,
			"weekday_text": []
		},
		"photos": [{
			"height": 3024,
			"html_attributions": ["\u003ca href=\"https://maps.google.com/maps/contrib/107490774270407595916/photos\"\u003eRuben Licera, Jr.\u003c/a\u003e"],
			"photo_reference": "CmRaAAAAOj8h315RUdFQbAWREg9WJGy-3mapxvt2uQ9Toj2XEdgmweRurVd4b7oicgcrH-jLwfI7H5r10y-DIF4nkR7fz5ch_2YI9EBsHWdNQSek2VyzNhKr90eI99iK1oYVbIGzEhA0Svk2L1AJ77X7ULa_H8TUGhSKWIBalFiC3qN0xQDX9s_Jl2G8hw",
			"width": 4032
		}],
		"place_id": "ChIJzXNlXD6ZqTMRVnTIpSHIBu0",
		"rating": 4.5,
		"reference": "CmRSAAAA2_fnnNVsBKXHutvviv29UOK5MCSNCcj2Dj2rmK7nlTZnm6eK_lETMYlBTezZXGzcZEOwhGUzPqsiVnQDzuOCEPgZnDnAF6VJZpIVXHYcX99D7kJTuDUqD-xUFFYhFQL3EhDjvCDk77sRvA9Vl5nxGDMBGhR64UOcMKAupFkHlU3jPmn8UEfKVQ",
		"scope": "GOOGLE",
		"types": ["restaurant",
		"food",
		"point_of_interest",
		"establishment"],
		"vicinity": "Ayala Center Cebu, The Terraces, Archbishop Reyes Ave Cebu Business Park, Cebu City",
		"specialties": "Bulalo, Crispy Pata",
		"visitors": 1910
	},
	{
		"geometry": {
			"location": {
				"lat": 10.3089141,
				"lng": 123.8911959
			},
			"viewport": {
				"northeast": {
					"lat": 10.3101799802915,
					"lng": 123.8925751302915
				},
				"southwest": {
					"lat": 10.3074820197085,
					"lng": 123.8898771697085
				}
			}
		},
		"icon": "https://maps.gstatic.com/mapfiles/place_api/icons/generic_business-71.png",
		"id": "75a91f328f3a41af2aa9af66766094a0b6a90e02",
		"name": "Alberto's Pizza",
		"opening_hours": {
			"open_now": true,
			"weekday_text": []
		},
		"photos": [{
			"height": 540,
			"html_attributions": ["\u003ca href=\"https://maps.google.com/maps/contrib/111659362808372848357/photos\"\u003eRi Mabano\u003c/a\u003e"],
			"photo_reference": "CmRaAAAAyea8QjaKpGj299VMzPYGxWCu3JTDzzYeRwusG2m-kkC-Yv0bn_BuUOMAWLo31tGJA12EC_92nBGGP6Tol5w7wi7vdUQ5LK_p8vGjYSPphm3EeAk2_apaMygii0D8leEDEhBvwVdL7sMHLrDNOXvLu-_qGhQ2fIGm3nijYTjYdtRVyPaNPyf9ww",
			"width": 960
		}],
		"place_id": "ChIJIcYfi0uZqTMR2YHKUFvIaSo",
		"rating": 3.5,
		"reference": "CmRRAAAAtX3TPTdJdE3p2xXFnQQFU2uQfIW69WpqgGEzPwbToifkHrZ-P55KFzPrPrKD-djb0x3EDQ_ReMMlCfFbMyUBoHjcJ3iOpWLSr6Um2P_bnpyo0YLdnAnGnDRrNmKVz9DdEhAQ_LA8opcjOaayJ1i61UfbGhTnupNxhdR9uvcEHykwu3jftScrJw",
		"scope": "GOOGLE",
		"types": ["meal_delivery",
		"restaurant",
		"food",
		"point_of_interest",
		"establishment"],
		"vicinity": "15 B. Rodriguez Street, Cebu City",
		"specialties": "Pizza",
		"visitors": 3883
	},
	{
		"geometry": {
			"location": {
				"lat": 10.3070781,
				"lng": 123.8943256
			},
			"viewport": {
				"northeast": {
					"lat": 10.3084106802915,
					"lng": 123.8956246302915
				},
				"southwest": {
					"lat": 10.3057127197085,
					"lng": 123.8929266697085
				}
			}
		},
		"icon": "https://maps.gstatic.com/mapfiles/place_api/icons/restaurant-71.png",
		"id": "0cc55f6ccd023e6554a37c0d5930ef061fc1036c",
		"name": "Jollibee",
		"photos": [{
			"height": 2988,
			"html_attributions": ["\u003ca href=\"https://maps.google.com/maps/contrib/107536622829564406870/photos\"\u003e鍾志成\u003c/a\u003e"],
			"photo_reference": "CmRaAAAAY_HKe7-atzC_I2aml5EbLshUOpa-L7ppfphMaveZX4Ddv9tqzU1sdghds2jkk_tZ1Cs5R174N7zb29Dm8nahIpPAXezfwA7rQdrARNiQwN5IrlN_dkVojX-e_orbqkXlEhCi4Zl6V6JUe8bqZtfmnVidGhRCaTdM-i2yf0AiogR1zhqarwfJyw",
			"width": 5312
		}],
		"place_id": "ChIJoWRzvOKbqTMRhFMgpDpOBMk",
		"rating": 3.5,
		"reference": "CmRSAAAAe0qi4A42DzAbhIdamYXysutgCwTJ77A14q49NTGLmX2yqCDPb8rLphfm9i67S-w4eQrsVQwmFQ-qWihdeDwxcYZahoMRRlqR7lhlhb7nqUZhcpwj0yU1Yi2njmUDLAxEEhCBIT5BpaCWI9FOhdO7DWCJGhQOC7StMXBtKlGky7CI9uWsdR7Baw",
		"scope": "GOOGLE",
		"types": ["restaurant",
		"food",
		"point_of_interest",
		"establishment"],
		"vicinity": "Osmeña Boulevard, Cebu City",
		"specialties": "Chickenjoy, Jolly Spaghetti",
		"visitors": 3968
	}],
	"status": "OK"
}